{"가능":{"address":"경기도 의정부시 평화로 633","line":"1","lat":"37.748577","lng":"127.044213"},"가락시장":{"address":"서울특별시 송파구 송파대로 지하 257","line":"8","lat":"37.492522","lng":"127.118234"},"가산디지털단지":{"address":"서울특별시 금천구 벚꽃로 309","line":"7","lat":"37.481072","lng":"126.882343"},"가양":{"address":"서울특별시 강서구 양천로 지하 485","line":"9","lat":"37.561391","lng":"126.854456"},"가재울":{"address":"인천광역시 서구 가좌동 288","line":"I2","lat":"37.484192","lng":"126.683673"},"가정":{"address":"인천광역시 서구 가정동 116-5","line":"I2","lat":"37.524649","lng":"126.675539"},"가정중앙시장":{"address":"인천광역시 서구 가정동 529","line":"I2","lat":"37.517054","lng":"126.676672"},"가좌":{"address":"서울특별시 서대문구 수색로 27","line":"K","lat":"37.568491","lng":"126.915487"},"가천대":{"address":"경기도 성남시 수정구 성남대로 지하 1332","line":"B","lat":"37.448605","lng":"127.126697"},"가평":{"address":"경기도 가평군 가평읍 문화로 13-42","line":"G","lat":"37.814536","lng":"127.510739"},"간석":{"address":"인천광역시 남동구 석정로 522-14","line":"1","lat":"37.464737","lng":"126.694181"},"간석오거리":{"address":"인천광역시 남동구 경인로 지하 642","line":"I","lat":"37.467048","lng":"126.707938"},"갈매":{"address":"경기도 구리시 갈매동 경춘북로 229","line":"G","lat":"37.634118","lng":"127.114757"},"갈산":{"address":"인천광역시 부평구 부평대로 지하 286","line":"I","lat":"37.517268","lng":"126.721514"},"강남":{"address":"서울특별시 강남구 강남대로 지하 396","line":"S","lat":"37.497175","lng":"127.027926"},"강남구청":{"address":"서울특별시 강남구 학동로 지하 346","line":"B","lat":"37.517186","lng":"127.041280"},"강남대":{"address":"경기도 용인시 기흥구 중부대로 578","line":"E","lat":"37.270161","lng":"127.126033"},"강동":{"address":"서울특별시 강동구 천호대로 지하 1097","line":"5","lat":"37.535804","lng":"127.132481"},"강동구청":{"address":"서울특별시 강동구 올림픽로 지하 550","line":"8","lat":"37.530341","lng":"127.120508"},"강매":{"address":"경기도 고양시 덕양구 소원로 202","line":"K","lat":"37.612314","lng":"126.843223"},"강변":{"address":"서울특별시 광진구 강변역로 53","line":"2","lat":"37.535095","lng":"127.094681"},"강촌":{"address":"강원도 춘천시 남산면 강촌로 150","line":"G","lat":"37.805723","lng":"127.634146"},"개롱":{"address":"서울특별시 송파구 오금로 지하 402","line":"5","lat":"37.498079","lng":"127.134820"},"개봉":{"address":"서울특별시 구로구 경인로40길 47","line":"1","lat":"37.494594","lng":"126.858680"},"개포동":{"address":"서울특별시 강남구 개포로 지하 420","line":"B","lat":"37.489116","lng":"127.066140"},"개화":{"address":"서울특별시 강서구 개화동로8길 19","line":"9","lat":"37.578608","lng":"126.798153"},"개화산":{"address":"서울특별시 강서구 양천로 22","line":"5","lat":"37.572399","lng":"126.806171"},"거여":{"address":"서울특별시 송파구 오금로 지하 499","line":"5","lat":"37.493105","lng":"127.144150"},"건대입구":{"address":"서울특별시 광진구 능동로 지하 110","line":"7","lat":"37.540693","lng":"127.070230"},"검단사거리":{"address":"인천광역시 서구 왕길동 234-1번지","line":"I2","lat":"37.601850","lng":"126.657108"},"검단오류":{"address":"인천광역시 서구 오류동 450-4","line":"I2","lat":"37.594877","lng":"126.627178"},"검바위":{"address":"인천광역시 서구 검암동 72-15","line":"I2","lat":"37.561405","lng":"126.677566"},"검암":{"address":"인천시 서구 검암동 370-25","line":"I2","lat":"37.569104","lng":"126.673728"},"경기도청북부청사":{"address":"경기도 의정부시 장곡로 615","line":"U","lat":"37.750590","lng":"127.071495"},"경마공원":{"address":"경기도 과천시 경마공원대로 지하 105","line":"4","lat":"37.443885","lng":"127.007888"},"경복궁":{"address":"서울특별시 종로구 사직로 지하 130","line":"3","lat":"37.575762","lng":"126.973530"},"경인교대입구":{"address":"인천광역시 계양구 계양대로 지하 162","line":"I","lat":"37.538157","lng":"126.722597"},"경전철의정부":{"address":"경기도 의정부시 신흥로 237","line":"U","lat":"37.737202","lng":"127.043257"},"경찰병원":{"address":"서울특별시 송파구 중대로 지하 149","line":"3","lat":"37.495918","lng":"127.124540"},"계산":{"address":"인천광역시 계양구 경명대로 지하 1089","line":"I","lat":"37.543238","lng":"126.728128"},"계양":{"address":"인천광역시 계양구 다남로 24","line":"A","lat":"37.571462","lng":"126.735637"},"고덕":{"address":"서울특별시 강동구 고덕로 지하 253","line":"5","lat":"37.555004","lng":"127.154151"},"고려대":{"address":"서울특별시 성북구 종암로 지하 1","line":"6","lat":"37.590508","lng":"127.036296"},"고속터미널":{"address":"서울특별시 서초구 신반포로 지하 188","line":"9","lat":"37.504810","lng":"127.004943"},"고잔":{"address":"경기도 안산시 단원구 중앙대로 784","line":"4","lat":"37.316777","lng":"126.823249"},"고진":{"address":"경기도 용인시 처인구 경안천로 141","line":"E","lat":"37.244840","lng":"127.214251"},"곡산":{"address":"경기도 고양시 일산동구 경의로 160","line":"K","lat":"37.645676","lng":"126.801762"},"곤제":{"address":"경기도 의정부시 천보로 173","line":"U","lat":"37.750471","lng":"127.083715"},"공덕":{"address":"서울특별시 마포구 마포대로 지하 92","line":"A","lat":"37.544018","lng":"126.951592"},"공릉":{"address":"서울특별시 노원구 동일로 지하 1074","line":"7","lat":"37.625742","lng":"127.072896"},"공항시장":{"address":"서울특별시 강서구 방화동로 지하 30","line":"9","lat":"37.563726","lng":"126.810678"},"공항화물청사":{"address":"인천광역시 중구 공항동로135번길 86","line":"A","lat":"37.458366","lng":"126.476241"},"과천":{"address":"경기도 과천시 별양로 지하 177","line":"4","lat":"37.433021","lng":"126.996568"},"관악":{"address":"경기도 안양시 만안구 경수대로 1273번길 46","line":"1","lat":"37.419232","lng":"126.908706"},"광교":{"address":"경기도 수원시 영통구 이의동 742","line":"S","lat":"37.302110","lng":"127.044483"},"광나루":{"address":"서울특별시 광진구 아차산로 지하 571","line":"5","lat":"37.545303","lng":"127.103570"},"광명":{"address":"경기도 광명시 광명역로 21","line":"1","lat":"37.416182","lng":"126.884466"},"광명사거리":{"address":"경기도 광명시 오리로 지하 980","line":"7","lat":"37.479252","lng":"126.854876"},"광운대":{"address":"서울특별시 노원구 석계로 98-2","line":"1","lat":"37.623632","lng":"127.061835"},"광화문":{"address":"서울특별시 종로구 세종대로 지하 172","line":"5","lat":"37.571026","lng":"126.976669"},"광흥창":{"address":"서울특별시 마포구 독막로 지하 165","line":"6","lat":"37.547456","lng":"126.931993"},"교대":{"address":"서울특별시 서초구 서초대로 지하 294","line":"2","lat":"37.493415","lng":"127.014080"},"구로":{"address":"서울특별시 구로구 구로중앙로 174","line":"1","lat":"37.503039","lng":"126.881966"},"구로디지털단지":{"address":"서울특별시 구로구 도림천로 477","line":"2","lat":"37.485266","lng":"126.901401"},"구룡":{"address":"서울특별시 강남구 개포로 지하 403","line":"B","lat":"37.486839","lng":"127.058856"},"구리":{"address":"경기도 구리시 건원대로34번길 32-29","line":"K","lat":"37.603392","lng":"127.143869"},"구반포":{"address":"서울특별시 서초구 신반포로 지하 17","line":"9","lat":"37.501364","lng":"126.987332"},"구산":{"address":"서울특별시 은평구 연서로 지하 137-1","line":"6","lat":"37.611377","lng":"126.917270"},"구성":{"address":"경기도 용인시 기흥구 용구대로 2403","line":"B","lat":"37.298969","lng":"127.105664"},"구의":{"address":"서울특별시 광진구 아차산로 384-1","line":"2","lat":"37.537077","lng":"127.085916"},"구일":{"address":"서울특별시 구로구 구일로 133","line":"1","lat":"37.496756","lng":"126.870793"},"구파발":{"address":"서울특별시 은평구 진관2로 지하 15-25","line":"3","lat":"37.636763","lng":"126.918821"},"국수":{"address":"경기도 양평군 양서면 국수역길 45","line":"K","lat":"37.516169","lng":"127.399367"},"국제업무지구":{"address":"인천광역시 연수구 인천타워대로 지하 334","line":"I","lat":"37.399907","lng":"126.630347"},"국회의사당":{"address":"서울특별시 영등포구 국회대로 지하 758","line":"9","lat":"37.528105","lng":"126.917874"},"군자":{"address":"서울특별시 광진구 천호대로 지하 550","line":"7","lat":"37.557121","lng":"127.079542"},"군포":{"address":"경기도 군포시 군포역1길 27","line":"1","lat":"37.353560","lng":"126.948462"},"굴봉산":{"address":"강원도 춘천시 남산면 서백길 192","line":"G","lat":"37.832067","lng":"127.557695"},"굴포천":{"address":"인천광역시 서구 환경로28번길 42","line":"7","lat":"37.506997","lng":"126.731280"},"굽은다리":{"address":"서울특별시 강동구 양재대로 지하 1572","line":"5","lat":"37.545477","lng":"127.142853"},"귤현":{"address":"인천광역시 계양구 장제로 1136","line":"I","lat":"37.566379","lng":"126.742654"},"금곡":{"address":"경기도 남양주시 경춘로 903","line":"G","lat":"37.637382","lng":"127.207853"},"금릉":{"address":"경기도 파주시 금릉역로 85","line":"K","lat":"37.751322","lng":"126.765347"},"금정":{"address":"경기도 군포시 군포로 750","line":"1","lat":"37.372221","lng":"126.943429"},"금천구청":{"address":"서울특별시 금천구 시흥대로63길 91","line":"1","lat":"37.455626","lng":"126.893980"},"금촌":{"address":"경기도 파주시 새꽃로 193","line":"K","lat":"37.766217","lng":"126.774644"},"금호":{"address":"서울특별시 성동구 동호로 지하 104","line":"3","lat":"37.548034","lng":"127.015872"},"기흥":{"address":"경기도 용인시 기흥구 중부대로 468","line":"E","lat":"37.275619","lng":"127.115936"},"길동":{"address":"서울특별시 강동구 양재대로 지하 1480","line":"5","lat":"37.537801","lng":"127.140004"},"길음":{"address":"서울특별시 성북구 동소문로 지하 248","line":"4","lat":"37.603407","lng":"127.025053"},"김량장":{"address":"경기도 용인시 처인구 금학로 315","line":"E","lat":"37.237247","lng":"127.198781"},"김유정":{"address":"강원도 춘천시 신동면 김유정로 1435","line":"G","lat":"37.818466","lng":"127.714340"},"김포공항":{"address":"서울특별시 강서구 하늘길 지하 77","line":"9","lat":"37.562434","lng":"126.801058"},"까치산":{"address":"서울특별시 강서구 강서로 지하 54","line":"5","lat":"37.531768","lng":"126.846683"},"까치울":{"address":"경기도 부천시 원미구 길주로 지하 626","line":"7","lat":"37.506207","lng":"126.810939"},"낙성대":{"address":"서울특별시 관악구 남부순환로 지하 1928","line":"2","lat":"37.476930","lng":"126.963693"},"남구로":{"address":"서울특별시 구로구 도림로 지하 7","line":"7","lat":"37.486056","lng":"126.887249"},"남동구청":{"address":"인천광역시 남동구 만수동 1006","line":"I2","lat":"37.448161","lng":"126.736939"},"남동인더스파크":{"address":"인천광역시 남동구 은청로 17","line":"SU","lat":"37.407722","lng":"126.695216"},"남부터미널":{"address":"서울특별시 서초구 서초중앙로 지하 31","line":"3","lat":"37.485013","lng":"127.016189"},"남성":{"address":"서울특별시 동작구 사당로 지하 218","line":"7","lat":"37.484596","lng":"126.971251"},"남영":{"address":"서울특별시 용산구 한강대로77길 25","line":"1","lat":"37.541021","lng":"126.971300"},"남춘천":{"address":"강원도 춘천시 영서로 2260","line":"G","lat":"37.864007","lng":"127.723792"},"남태령":{"address":"서울특별시 서초구 과천대로 지하 816","line":"4","lat":"37.463873","lng":"126.989134"},"남한산성입구":{"address":"경기도 성남시 수정구 산성대로 지하 445","line":"8","lat":"37.451535","lng":"127.159816"},"내방":{"address":"서울특별시 서초구 서초대로 지하 103","line":"7","lat":"37.487618","lng":"126.993513"},"노들":{"address":"서울특별시 동작구 노량진로 지하 238","line":"9","lat":"37.512887","lng":"126.953222"},"노량진":{"address":"서울특별시 동작구 노량진로 지하 130","line":"9","lat":"37.514219","lng":"126.942454"},"노원":{"address":"서울특별시 노원구 동일로 지하 1409","line":"7","lat":"37.655128","lng":"127.061368"},"녹번":{"address":"서울특별시 은평구 통일로 지하 602-1","line":"3","lat":"37.600927","lng":"126.935756"},"녹사평":{"address":"서울특별시 용산구 녹사평대로 지하 195","line":"6","lat":"37.534675","lng":"126.986695"},"녹양":{"address":"경기도 의정부시 평화로 757","line":"1","lat":"37.759380","lng":"127.042292"},"녹천":{"address":"서울특별시 도봉구 덕릉로 376","line":"1","lat":"37.644799","lng":"127.051269"},"논현":{"address":"서울특별시 강남구 학동로 지하 102","line":"7","lat":"37.511093","lng":"127.021415"},"능곡":{"address":"경기도 고양시 덕양구 토당로 35","line":"K","lat":"37.618808","lng":"126.820783"},"단대오거리":{"address":"경기도 성남시 수정구 산성대로 지하 365","line":"8","lat":"37.445210","lng":"127.156866"},"달월":{"address":"경기도 시흥시 서해안로736번길 55","line":"SU","lat":"37.379681","lng":"126.745177"},"답십리":{"address":"서울특별시 성동구 천호대로 지하 300","line":"5","lat":"37.566747","lng":"127.052704"},"당고개":{"address":"서울특별시 노원구 상계로 305","line":"4","lat":"37.670272","lng":"127.079066"},"당산":{"address":"서울특별시 영등포구 당산로 229","line":"9","lat":"37.534380","lng":"126.902281"},"당정":{"address":"경기도 군포시 당정역로 91","line":"1","lat":"37.344285","lng":"126.948345"},"대곡":{"address":"경기도 고양시 덕양구 대주로107번길 71-81","line":"3","lat":"37.631626","lng":"126.811024"},"대공원":{"address":"경기도 과천시 대공원대로 지하 50","line":"4","lat":"37.435675","lng":"127.006523"},"대림":{"address":"서울특별시 영등포구 도림로 지하 137","line":"7","lat":"37.492970","lng":"126.895801"},"대모산입구":{"address":"서울특별시 강남구 개포로 지하 522","line":"B","lat":"37.491373","lng":"127.072720"},"대방":{"address":"서울특별시 영등포구 여의대방로 300","line":"1","lat":"37.513342","lng":"126.926382"},"대성리":{"address":"경기도 가평군 청평면 경춘로 88","line":"G","lat":"37.684071","lng":"127.379319"},"대야미":{"address":"경기도 군포시 대야1로 28","line":"4","lat":"37.328467","lng":"126.917332"},"대청":{"address":"서울특별시 강남구 일원로 지하 2","line":"3","lat":"37.493514","lng":"127.079532"},"대치":{"address":"서울특별시 강남구 남부순환로 지하 2952","line":"3","lat":"37.494612","lng":"127.063642"},"대화":{"address":"경기도 고양시 일산서구 중앙로 지하 1569","line":"3","lat":"37.676087","lng":"126.747569"},"대흥":{"address":"서울특별시 마포구 대흥로 지하 85","line":"6","lat":"37.547771","lng":"126.942069"},"덕계":{"address":"경기도 양주시 고덕로139번길 317","line":"1","lat":"37.818486","lng":"127.056486"},"덕소":{"address":"경기도 남양주시 와부읍 덕소로 56","line":"K","lat":"37.586781","lng":"127.208832"},"덕정":{"address":"경기도 양주시 화합로 1356","line":"1","lat":"37.843188","lng":"127.061277"},"도곡":{"address":"서울특별시 강남구 남부순환로 지하 2814","line":"B","lat":"37.490858","lng":"127.055381"},"도농":{"address":"경기도 남양주시 경춘로 433","line":"K","lat":"37.608806","lng":"127.161153"},"도림천":{"address":"서울특별시 구로구 경인로67길 160","line":"2","lat":"37.514287","lng":"126.882768"},"도봉":{"address":"서울특별시 도봉구 도봉로170길 2","line":"1","lat":"37.679563","lng":"127.045595"},"도봉산":{"address":"서울특별시 도봉구 도봉로 964-33","line":"1","lat":"37.689313","lng":"127.046222"},"도심":{"address":"경기도 남양주시 와부읍 덕소로 237","line":"K","lat":"37.579622","lng":"127.222672"},"도원":{"address":"인천광역시 동구 참외전로 245","line":"1","lat":"37.468446","lng":"126.642706"},"도화":{"address":"인천광역시 남구 숙골로24번길 9","line":"1","lat":"37.466070","lng":"126.668672"},"독립문":{"address":"서울특별시 서대문구 통일로 지하 247","line":"3","lat":"37.574571","lng":"126.957748"},"독바위":{"address":"서울특별시 은평구 불광로 지하 129-1","line":"6","lat":"37.618456","lng":"126.933031"},"독산":{"address":"서울특별시 금천구 벚꽃로 115","line":"1","lat":"37.466613","lng":"126.889249"},"독정":{"address":"인천시 서구 백석동 74-1","line":"I2","lat":"37.585212","lng":"126.675844"},"돌곶이":{"address":"서울특별시 성북구 화랑로 지하 243","line":"6","lat":"37.610537","lng":"127.056431"},"동대문":{"address":"서울특별시 종로구 종로 지하 302","line":"1","lat":"37.571420","lng":"127.009745"},"동대문역사문화공원":{"address":"서울특별시 중구 마른내로 지하 162","line":"5","lat":"37.565138","lng":"127.007896"},"동대입구":{"address":"서울특별시 중구 동호로 지하 256","line":"3","lat":"37.559052","lng":"127.005602"},"동두천":{"address":"경기도 동두천시 평화로 2687","line":"1","lat":"37.927878","lng":"127.054790"},"동두천중앙":{"address":"경기도 동두천시 동두천로 228","line":"1","lat":"37.901885","lng":"127.056482"},"동막":{"address":"인천광역시 연수구 경원대로 지하 80","line":"I","lat":"37.397878","lng":"126.674005"},"동묘앞":{"address":"서울특별시 종로구 지봉로 지하 24","line":"6","lat":"37.572627","lng":"127.016429"},"동백":{"address":"경기도 용인시 기흥구 동백죽전대로 314","line":"E","lat":"37.269043","lng":"127.152716"},"동수":{"address":"인천광역시 부평구 경인로 지하 877","line":"I","lat":"37.485312","lng":"126.718247"},"동암":{"address":"인천광역시 부평구 동암광장로 10","line":"1","lat":"37.471408","lng":"126.702896"},"동오":{"address":"경기도 의정부시 장곡로 471","line":"U","lat":"37.745271","lng":"127.056947"},"동인천":{"address":"인천광역시 중구 참외전로 121","line":"1","lat":"37.475276","lng":"126.632802"},"동작":{"address":"서울특별시 동작구 현충로 지하 220","line":"9","lat":"37.502971","lng":"126.979306"},"동춘":{"address":"인천광역시 연수구 경원대로 지하 180","line":"I","lat":"37.404737","lng":"126.681015"},"두정":{"address":"충청남도 천안시 서북구 두정로 289","line":"1","lat":"36.833705","lng":"127.148960"},"둔전":{"address":"경기도 용인시 처인구 포곡읍 포곡로 70","line":"E","lat":"37.267051","lng":"127.213640"},"둔촌동":{"address":"서울특별시 강동구 양재대로 지하 1369","line":"5","lat":"37.527788","lng":"127.136248"},"등촌":{"address":"서울특별시 강서구 공항대로 지하 529","line":"9","lat":"37.550632","lng":"126.865689"},"디지털미디어시티":{"address":"서울특별시 마포구 성암로 지하 184","line":"A","lat":"37.576646","lng":"126.900984"},"뚝섬":{"address":"서울특별시 성동구 아차산로 18","line":"2","lat":"37.547184","lng":"127.047367"},"뚝섬유원지":{"address":"서울특별시 광진구 능동로 10","line":"7","lat":"37.531540","lng":"127.066704"},"마곡":{"address":"서울특별시 강서구 공항대로 지하 163","line":"5","lat":"37.560183","lng":"126.825448"},"마곡나루":{"address":"서울특별시 강서구 마곡중앙5로 지하 2","line":"9","lat":"37.567336","lng":"126.829497"},"마두":{"address":"경기도 고양시 일산동구 중앙로 지하 1180","line":"3","lat":"37.652206","lng":"126.777620"},"마들":{"address":"서울특별시 노원구 동일로 지하 1530-1","line":"7","lat":"37.664940","lng":"127.057675"},"마석":{"address":"경기도 남양주시 화도읍 마석중앙로 107","line":"G","lat":"37.652782","lng":"127.311767"},"마장":{"address":"서울특별시 성동구 마장로 지하 296","line":"5","lat":"37.566100","lng":"127.042973"},"마전":{"address":"인천시 서구 마전동 999-25","line":"I2","lat":"37.597566","lng":"126.666998"},"마천":{"address":"서울특별시 송파구 마천로57길 지하 7","line":"5","lat":"37.494990","lng":"127.152781"},"마포":{"address":"서울특별시 마포구 마포대로 지하 33","line":"5","lat":"37.539574","lng":"126.945932"},"마포구청":{"address":"서울특별시 마포구 월드컵로 지하 190","line":"6","lat":"37.563515","lng":"126.903343"},"만수":{"address":"인천광역시 남동구 만수동 993","line":"I2","lat":"37.454911","lng":"126.732094"},"망우":{"address":"서울특별시 중랑구 망우로55길 11-10","line":"K","lat":"37.599550","lng":"127.091909"},"망원":{"address":"서울특별시 마포구 월드컵로 지하 77","line":"6","lat":"37.556094","lng":"126.910052"},"망월사":{"address":"경기도 의정부시 평화로 221","line":"1","lat":"37.709914","lng":"127.047455"},"망포":{"address":"경기도 수원시 영통구 덕영대로 지하 1520","line":"B","lat":"37.245795","lng":"127.057353"},"매교":{"address":"경기도 수원시 팔달구 효원로 지하 126","line":"B","lat":"37.265481","lng":"127.015678"},"매봉":{"address":"서울특별시 강남구 남부순환로 지하 2744","line":"3","lat":"37.486947","lng":"127.046769"},"매탄권선":{"address":"경기도 수원시 영통구 권선로 지하 841","line":"B","lat":"37.252759","lng":"127.040566"},"먹골":{"address":"서울특별시 중랑구 동일로 지하 901","line":"7","lat":"37.610637","lng":"127.077725"},"면목":{"address":"서울특별시 중랑구 면목로 지하 407","line":"7","lat":"37.588579","lng":"127.087503"},"명동":{"address":"서울특별시 중구 퇴계로 지하 126","line":"4","lat":"37.560989","lng":"126.986325"},"명일":{"address":"서울특별시 강동구 양재대로 지하 1632","line":"5","lat":"37.551370","lng":"127.143999"},"명지대":{"address":"경기도 용인시 처인구 금학로 241","line":"E","lat":"37.237964","lng":"127.190294"},"명학":{"address":"경기도 안양시 만안구 만안로 20","line":"1","lat":"37.384653","lng":"126.935433"},"모란":{"address":"경기도 성남시 중원구 성남대로 지하 1147","line":"B","lat":"37.432130","lng":"127.129087"},"모래내시장":{"address":"인천광역시 남구 구월동 341-6","line":"I2","lat":"37.455830","lng":"126.719298"},"목동":{"address":"서울특별시 양천구 오목로 지하 245","line":"5","lat":"37.526065","lng":"126.864931"},"몽촌토성":{"address":"서울특별시 송파구 올림픽로 지하 383","line":"8","lat":"37.517409","lng":"127.112359"},"무악재":{"address":"서울특별시 서대문구 통일로 지하 361","line":"3","lat":"37.582299","lng":"126.950291"},"문래":{"address":"서울특별시 영등포구 당산로 지하 28","line":"2","lat":"37.517933","lng":"126.894760"},"문산":{"address":"경기도 파주시 문산읍 문산역로 94","line":"K","lat":"37.854619","lng":"126.788047"},"문정":{"address":"서울특별시 송파구 송파대로 지하 179","line":"8","lat":"37.485855","lng":"127.122500"},"문학경기장":{"address":"인천광역시 연수구 예술로 지하 2","line":"I","lat":"37.434935","lng":"126.698579"},"미금":{"address":"경기도 성남시 분당구 성남대로 지하 156","line":"B","lat":"37.350077","lng":"127.108910"},"미아":{"address":"서울특별시 강북구 도봉로 지하 198","line":"4","lat":"37.626670","lng":"127.025983"},"미아사거리":{"address":"서울특별시 강북구 도봉로 지하 50","line":"4","lat":"37.613292","lng":"127.030053"},"박촌":{"address":"인천광역시 계양구 장제로 지하 992","line":"I","lat":"37.553703","lng":"126.745077"},"반월":{"address":"경기도 안산시 상록구 건건로 119-10","line":"4","lat":"37.312212","lng":"126.903524"},"반포":{"address":"서울특별시 서초구 신반포로 지하 241","line":"7","lat":"37.508178","lng":"127.011727"},"발곡":{"address":"경기도 의정부시 장곡로 258","line":"U","lat":"37.727048","lng":"127.052803"},"발산":{"address":"서울특별시 강서구 공항대로 지하 267","line":"5","lat":"37.558598","lng":"126.837668"},"방배":{"address":"서울특별시 서초구 방배로 지하 80","line":"2","lat":"37.481426","lng":"126.997596"},"방이":{"address":"서울특별시 송파구 양재대로 지하 1127","line":"5","lat":"37.508857","lng":"127.126133"},"방학":{"address":"서울특별시 도봉구 도봉로150다길 3","line":"1","lat":"37.667503","lng":"127.044273"},"방화":{"address":"서울특별시 강서구 금낭화로 지하 132","line":"5","lat":"37.577446","lng":"126.812741"},"배방":{"address":"충청남도 아산시 배방읍 온천대로 1967","line":"1","lat":"36.777629","lng":"127.052991"},"백마":{"address":"경기도 고양시 일산동구 경의로 318","line":"K","lat":"37.658239","lng":"126.794461"},"백석":{"address":"경기도 고양시 일산동구 중앙로 지하 1042","line":"3","lat":"37.643114","lng":"126.787870"},"백양리":{"address":"강원도 춘천시 남산면 북한강변길 690","line":"G","lat":"37.830779","lng":"127.589330"},"백운":{"address":"인천광역시 부평구 마장로55번길 14","line":"1","lat":"37.483664","lng":"126.707704"},"버티고개":{"address":"서울특별시 중구 다산로 지하 38","line":"6","lat":"37.548013","lng":"127.007055"},"범계":{"address":"경기도 안양시 동안구 동안로 지하 130","line":"4","lat":"37.389793","lng":"126.950806"},"범골":{"address":"경기도 의정부시 신흥로 141","line":"U","lat":"37.728755","lng":"127.043530"},"별내":{"address":"경기도 남양주시 경춘북로 375","line":"G","lat":"37.642020","lng":"127.126840"},"병점":{"address":"경기도 화성시 떡전골로 97","line":"1","lat":"37.207503","lng":"127.032731"},"보라매":{"address":"서울특별시 동작구 상도로 지하 2","line":"7","lat":"37.499872","lng":"126.920428"},"보문":{"address":"서울특별시 성북구 보문로 지하 116","line":"6","lat":"37.585286","lng":"127.019381"},"보산":{"address":"경기도 동두천시 평화로 2539","line":"1","lat":"37.913702","lng":"127.057277"},"보정":{"address":"경기도 용인시 기흥구 용구대로 지하 2560","line":"B","lat":"37.312752","lng":"127.108196"},"보평":{"address":"경기도 용인시 처인구 경안천로 313","line":"E","lat":"37.258965","lng":"127.218457"},"복정":{"address":"서울특별시 송파구 송파대로 지하 6","line":"8","lat":"37.470047","lng":"127.126662"},"봉명":{"address":"충청남도 천안시 동남구 차돌로 51","line":"1","lat":"36.801215","lng":"127.135763"},"봉은사":{"address":"서울특별시 강남구 봉은사로 지하 601","line":"9","lat":"37.514219","lng":"127.060245"},"봉천":{"address":"서울특별시 관악구 남부순환로 지하 1721","line":"2","lat":"37.482362","lng":"126.941892"},"봉화산":{"address":"서울특별시 중랑구 신내로 지하 232","line":"6","lat":"37.617283","lng":"127.091401"},"부개":{"address":"인천광역시 부평구 수변로 22","line":"1","lat":"37.488418","lng":"126.741090"},"부천":{"address":"경기도 부천시 소사구 부천로 1","line":"1","lat":"37.484050","lng":"126.782686"},"부천시청":{"address":"경기도 부천시 원미구 길주로 지하 202","line":"7","lat":"37.504631","lng":"126.763538"},"부천종합운동장":{"address":"경기도 부천시 원미구 길주로 지하 502","line":"7","lat":"37.505380","lng":"126.797337"},"부평":{"address":"인천광역시 부평구 광장로 지하 15","line":"I","lat":"37.489493","lng":"126.724805"},"부평구청":{"address":"인천광역시 부평구 부평대로 지하 189","line":"I","lat":"37.508336","lng":"126.720548"},"부평삼거리":{"address":"인천광역시 부평구 경인로 지하 765","line":"I","lat":"37.477679","lng":"126.710208"},"부평시장":{"address":"인천광역시 부평구 부평대로 지하 69","line":"I","lat":"37.498383","lng":"126.722244"},"불광":{"address":"서울특별시 은평구 통일로 지하 723-1","line":"6","lat":"37.610469","lng":"126.929887"},"사가정":{"address":"서울특별시 중랑구 사가정로 지하 393","line":"7","lat":"37.580894","lng":"127.088478"},"사당":{"address":"서울특별시 동작구 동작대로 지하 3","line":"4","lat":"37.476530","lng":"126.981685"},"사릉":{"address":"경기도 남양주시 진건읍 진건우회로 63","line":"G","lat":"37.651080","lng":"127.176933"},"사평":{"address":"서울특별시 서초구 사평대로 지하 285","line":"9","lat":"37.504206","lng":"127.015259"},"산본":{"address":"경기도 군포시 번영로 504","line":"4","lat":"37.358101","lng":"126.933274"},"산성":{"address":"경기도 성남시 수정구 수정로 지하 365","line":"8","lat":"37.457122","lng":"127.149908"},"삼가":{"address":"경기도 용인시 처인구 중부대로 1098","line":"E","lat":"37.242115","lng":"127.168075"},"삼각지":{"address":"서울특별시 용산구 한강대로 지하 185","line":"6","lat":"37.534777","lng":"126.973110"},"삼산체육관":{"address":"인천광역시 부평구 길주로 지하 713","line":"7","lat":"37.506411","lng":"126.742153"},"삼성":{"address":"서울특별시 강남구 테헤란로 지하 538","line":"2","lat":"37.508844","lng":"127.063160"},"삼성중앙":{"address":"서울특별시 강남구 봉은사로 지하 501","line":"9","lat":"37.513011","lng":"127.053282"},"삼송":{"address":"경기도 고양시 덕양구 삼송로 지하 194","line":"3","lat":"37.653083","lng":"126.895558"},"상갈":{"address":"경기도 용인시 기흥구 금화로 지하 40","line":"B","lat":"37.261810","lng":"127.108847"},"상계":{"address":"서울특별시 노원구 상계로 182","line":"4","lat":"37.660878","lng":"127.073572"},"상도":{"address":"서울특별시 동작구 상도로 지하 272","line":"7","lat":"37.502834","lng":"126.947910"},"상동":{"address":"경기도 부천시 원미구 길주로 지하 104","line":"7","lat":"37.505781","lng":"126.753083"},"상록수":{"address":"경기도 안산시 상록구 상록수로 61","line":"4","lat":"37.302795","lng":"126.866489"},"상봉":{"address":"서울특별시 중랑구 망우로 297","line":"7","lat":"37.596362","lng":"127.085032"},"상수":{"address":"서울특별시 마포구 독막로 지하 85","line":"6","lat":"37.547716","lng":"126.922852"},"상왕십리":{"address":"서울특별시 성동구 왕십리로 지하 374","line":"2","lat":"37.564354","lng":"127.029354"},"상월곡":{"address":"서울특별시 성북구 화랑로 지하 157","line":"6","lat":"37.606377","lng":"127.048491"},"상일동":{"address":"서울특별시 강동구 고덕로 지하 359","line":"5","lat":"37.556712","lng":"127.166417"},"상천":{"address":"경기도 가평군 청평면 상천역로 29","line":"G","lat":"37.770246","lng":"127.454821"},"새말":{"address":"경기도 의정부시 장곡로 551","line":"U","lat":"37.748885","lng":"127.063620"},"새절":{"address":"서울특별시 은평구 증산로 지하 400","line":"6","lat":"37.591148","lng":"126.913629"},"샛강":{"address":"서울특별시 영등포구 의사당대로 지하 166","line":"9","lat":"37.517274","lng":"126.928422"},"서강대":{"address":"서울특별시 마포구 서강로 지하 118","line":"K","lat":"37.551881","lng":"126.935711"},"서구청":{"address":"인천광역시 서구 심곡동 7-4","line":"I2","lat":"37.543742","lng":"126.676787"},"서대문":{"address":"서울특별시 종로구 통일로 지하 126","line":"5","lat":"37.565773","lng":"126.966641"},"서동탄":{"address":"경기도 오산시 외삼미로15번길 75-60","line":"1","lat":"37.195504","lng":"127.051672"},"서부여성회관":{"address":"인천광역시 서구 석남동 629","line":"I2","lat":"37.506193","lng":"126.676203"},"서빙고":{"address":"서울특별시 용산구 서빙고로 238","line":"K","lat":"37.519594","lng":"126.988537"},"서울":{"address":"서울특별시 용산구 청파로 378","line":"A","lat":"37.554648","lng":"126.972559"},"서울(경의중앙선)":{"address":"서울특별시 용산구 한강대로 405","line":"K","lat":"37.556328","lng":"126.969522"},"서울대입구":{"address":"서울특별시 관악구 남부순환로 지하 1822","line":"2","lat":"37.481247","lng":"126.952739"},"서울숲":{"address":"서울특별시 성동구 왕십리로 지하 77","line":"B","lat":"37.543617","lng":"127.044707"},"서정리":{"address":"경기도 평택시 탄현로 51","line":"1","lat":"37.056496","lng":"127.052819"},"서초":{"address":"서울특별시 서초구 서초대로 지하 233","line":"2","lat":"37.491897","lng":"127.007917"},"서현":{"address":"경기도 성남시 분당구 성남대로 지하 601","line":"B","lat":"37.385126","lng":"127.123592"},"석계":{"address":"서울특별시 노원구 화랑로 지하 347-1","line":"6","lat":"37.614805","lng":"127.065851"},"석남":{"address":"인천시 서구 석남동 629","line":"I2","lat":"37.506193","lng":"126.676203"},"석바위시장":{"address":"인천광역시 남구 주안동 1597","line":"I2","lat":"37.457611","lng":"126.692575"},"석수":{"address":"경기도 안양시 만안구 경수대로 1431","line":"1","lat":"37.435047","lng":"126.902295"},"석천사거리":{"address":"인천광역시 남동구 구월동 73-3","line":"I2","lat":"37.456805","lng":"126.709986"},"석촌":{"address":"서울특별시 송파구 송파대로 지하 439","line":"8","lat":"37.505431","lng":"127.106979"},"선릉":{"address":"서울특별시 강남구 테헤란로 지하 340","line":"B","lat":"37.504503","lng":"127.049008"},"선바위":{"address":"경기도 과천시 중앙로 지하 440","line":"4","lat":"37.451673","lng":"127.002303"},"선유도":{"address":"서울특별시 영등포구 양평로 지하 124","line":"9","lat":"37.538020","lng":"126.893525"},"선정릉":{"address":"서울특별시 강남구 선릉로 지하 580","line":"9","lat":"37.510980","lng":"127.043593"},"선학":{"address":"인천광역시 연수구 경원대로 지하 480","line":"I","lat":"37.426684","lng":"126.698863"},"성균관대":{"address":"경기도 수원시 장안구 서부로 2149","line":"1","lat":"37.300349","lng":"126.970750"},"성수":{"address":"서울특별시 성동구 아차산로 100","line":"2","lat":"37.544581","lng":"127.055961"},"성신여대입구":{"address":"서울특별시 성북구 동소문로 지하 102","line":"4","lat":"37.592624","lng":"127.016403"},"성환":{"address":"충청남도 천안시 서북구 성환읍 성환1로 237-5","line":"1","lat":"36.916076","lng":"127.126964"},"세류":{"address":"경기도 수원시 권선구 정조로 393-1","line":"1","lat":"37.245025","lng":"127.013222"},"세마":{"address":"경기도 오산시 세마역로 88","line":"1","lat":"37.187533","lng":"127.043180"},"센트럴파크":{"address":"인천광역시 연수구 인천타워대로 지하 240","line":"I","lat":"37.393054","lng":"126.634729"},"소래포구":{"address":"인천광역시 남동구 소래역로 51","line":"SU","lat":"37.400950","lng":"126.733522"},"소사":{"address":"경기도 부천시 소사구 소사로 272","line":"1","lat":"37.482753","lng":"126.795440"},"소요산":{"address":"경기도 동두천시 평화로 2925","line":"1","lat":"37.948100","lng":"127.061034"},"송내":{"address":"경기도 부천시 소사구 송내대로 43","line":"1","lat":"37.487600","lng":"126.753664"},"송도":{"address":"인천광역시 연수구 비류대로 175","line":"SU","lat":"37.428514","lng":"126.657772"},"송산":{"address":"경기도 의정부시 충의로 59","line":"U","lat":"37.737279","lng":"127.087159"},"송정":{"address":"서울특별시 강서구 공항대로 지하 33","line":"5","lat":"37.561184","lng":"126.811973"},"송탄":{"address":"경기도 평택시 송탄공원로 43","line":"1","lat":"37.075696","lng":"127.054301"},"송파":{"address":"서울특별시 송파구 송파대로 지하 354","line":"8","lat":"37.499703","lng":"127.112183"},"수내":{"address":"경기도 성남시 분당구 성남대로 지하 491","line":"B","lat":"37.378455","lng":"127.114322"},"수락산":{"address":"서울특별시 노원구 동일로 지하 1662","line":"7","lat":"37.677850","lng":"127.055315"},"수리산":{"address":"경기도 군포시 번영로 385","line":"4","lat":"37.349801","lng":"126.925365"},"수색":{"address":"서울특별시 은평구 수색로 261-1","line":"K","lat":"37.580842","lng":"126.895611"},"수서":{"address":"서울특별시 강남구 광평로 지하 270","line":"B","lat":"37.487371","lng":"127.101880"},"수원":{"address":"경기도 수원시 팔달구 덕영대로 924","line":"1","lat":"37.265974","lng":"126.999874"},"수원시청":{"address":"경기도 수원시 권선구 효원로 지하 270","line":"B","lat":"37.261911","lng":"127.030736"},"수유":{"address":"서울특별시 강북구 도봉로 지하 338","line":"4","lat":"37.638052","lng":"127.025732"},"수진":{"address":"경기도 성남시 수정구 산성대로 지하 200","line":"8","lat":"37.437428","lng":"127.140722"},"숙대입구":{"address":"서울특별시 용산구 한강대로 지하 306","line":"4","lat":"37.544560","lng":"126.972106"},"숭실대입구":{"address":"서울특별시 동작구 상도로 지하 378","line":"7","lat":"37.496029","lng":"126.953822"},"시민공원":{"address":"인천광역시 남구 주안동 189","line":"I2","lat":"37.458335","lng":"126.681192"},"시청":{"address":"서울특별시 중구 서소문로 지하 127","line":"2","lat":"37.564718","lng":"126.977108"},"시청·용인대":{"address":"경기도 용인시 처인구 중부대로 1199-1","line":"E","lat":"37.239151","lng":"127.178406"},"신갈":{"address":"경기도 용인시 기흥구 기흥로 지하 136","line":"B","lat":"37.286102","lng":"127.111313"},"신금호":{"address":"서울특별시 성동구 금호로 지하 154","line":"5","lat":"37.554548","lng":"127.020331"},"신길":{"address":"서울특별시 영등포구 영등포로 327","line":"1","lat":"37.517122","lng":"126.917169"},"신길온천":{"address":"경기도 안산시 단원구 황고개로 2","line":"4","lat":"37.338212","lng":"126.765844"},"신내":{"address":"서울특별시 중랑구 신내역로 20","line":"G","lat":"37.612887","lng":"127.103218"},"신논현":{"address":"서울특별시 강남구 봉은사로 지하 102","line":"9","lat":"37.504598","lng":"127.025060"},"신답":{"address":"서울특별시 성동구 천호대로 232","line":"2","lat":"37.570040","lng":"127.046481"},"신당":{"address":"서울특별시 중구 퇴계로 지하 431-1","line":"2","lat":"37.565972","lng":"127.017820"},"신대방":{"address":"서울특별시 동작구 대림로 2","line":"2","lat":"37.487462","lng":"126.913149"},"신대방삼거리":{"address":"서울특별시 동작구 상도로 지하 76","line":"7","lat":"37.499701","lng":"126.928276"},"신도림":{"address":"서울특별시 구로구 새말로 지하 117-21","line":"2","lat":"37.508725","lng":"126.891295"},"신림":{"address":"서울특별시 관악구 남부순환로 지하 1614","line":"2","lat":"37.484201","lng":"126.929715"},"신목동":{"address":"서울특별시 양천구 목동중앙로 지하 217","line":"9","lat":"37.544277","lng":"126.883080"},"신반포":{"address":"서울특별시 서초구 신반포로 지하 105","line":"9","lat":"37.503415","lng":"126.995925"},"신방화":{"address":"서울특별시 강서구 방화대로 지하 301","line":"9","lat":"37.567532","lng":"126.816601"},"신사":{"address":"서울특별시 강남구 도산대로 지하 102","line":"3","lat":"37.516334","lng":"127.020114"},"신설동":{"address":"서울특별시 동대문구 왕산로 지하 1","line":"2","lat":"37.575297","lng":"127.025087"},"신연수":{"address":"인천광역시 연수구 경원대로 지하 368","line":"I","lat":"37.418040","lng":"126.693863"},"신용산":{"address":"서울특별시 용산구 한강대로 지하 112","line":"4","lat":"37.529170","lng":"126.967894"},"신원":{"address":"경기도 양평군 양서면 신원역길 7","line":"K","lat":"37.525545","lng":"127.372921"},"신이문":{"address":"서울특별시 동대문구 한천로 472","line":"1","lat":"37.601854","lng":"127.067325"},"신정":{"address":"서울특별시 양천구 오목로 지하 179","line":"5","lat":"37.524997","lng":"126.856191"},"신정네거리":{"address":"서울특별시 양천구 중앙로 지하 261","line":"2","lat":"37.520074","lng":"126.852912"},"신중동":{"address":"경기도 부천시 원미구 길주로 지하 314","line":"7","lat":"37.503048","lng":"126.775960"},"신창":{"address":"충청남도 아산시 신창면 행목로 50","line":"1","lat":"36.769502","lng":"126.951108"},"신촌":{"address":"서울특별시 마포구 신촌로 지하 90","line":"2","lat":"37.555134","lng":"126.936893"},"신촌(경의중앙선)":{"address":"서울특별시 서대문구 신촌역로 30","line":"K","lat":"37.559783","lng":"126.942319"},"신풍":{"address":"서울특별시 영등포구 신풍로 지하 27","line":"7","lat":"37.500080","lng":"126.909930"},"신흥":{"address":"경기도 성남시 수정구 산성대로 지하 280","line":"8","lat":"37.440918","lng":"127.147564"},"쌍문":{"address":"서울특별시 도봉구 도봉로 지하 486-1","line":"4","lat":"37.648627","lng":"127.034709"},"쌍용(나사렛대)":{"address":"충청남도 천안시 서북구 쌍용19로 20","line":"1","lat":"36.793759","lng":"127.121400"},"아산":{"address":"충청남도 아산시 배방읍 희망로 90","line":"1","lat":"36.792053","lng":"127.104361"},"아시아드경기장":{"address":"인천광역시 서구 연희동 94-6","line":"I2","lat":"37.551700","lng":"126.677122"},"아신":{"address":"경기도 양평군 옥천면 아신역1길 23","line":"K","lat":"37.513820","lng":"127.443173"},"아차산":{"address":"서울특별시 광진구 천호대로 지하 657","line":"5","lat":"37.551691","lng":"127.089761"},"아현":{"address":"서울특별시 마포구 신촌로 지하 270","line":"2","lat":"37.557345","lng":"126.956141"},"안국":{"address":"서울특별시 종로구 율곡로 지하 62","line":"3","lat":"37.576477","lng":"126.985443"},"안산":{"address":"경기도 안산시 단원구 중앙대로 462","line":"4","lat":"37.327082","lng":"126.788532"},"안암":{"address":"서울특별시 성북구 인촌로 지하 89","line":"6","lat":"37.586272","lng":"127.029005"},"안양":{"address":"경기도 안양시 만안구 만안로 232","line":"1","lat":"37.401592","lng":"126.922874"},"암사":{"address":"서울특별시 강동구 올림픽로 지하 776","line":"8","lat":"37.550210","lng":"127.127562"},"압구정":{"address":"서울특별시 강남구 압구정로 지하 172","line":"3","lat":"37.527072","lng":"127.028461"},"압구정로데오":{"address":"서울특별시 강남구 압구정로 지하 402","line":"B","lat":"37.527381","lng":"127.040534"},"애오개":{"address":"서울특별시 마포구 마포대로 지하 210","line":"5","lat":"37.553736","lng":"126.956820"},"야탑":{"address":"경기도 성남시 분당구 성남대로 지하 903","line":"B","lat":"37.411185","lng":"127.128715"},"약수":{"address":"서울특별시 중구 다산로 지하 122","line":"3","lat":"37.554340","lng":"127.010655"},"양수":{"address":"경기도 양평군 양서면 목왕로 55-10","line":"K","lat":"37.545981","lng":"127.329098"},"양원":{"address":"서울특별시 중랑구 송림길 147","line":"K","lat":"37.606596","lng":"127.107906"},"양재":{"address":"서울특별시 서초구 남부순환로 지하 2585","line":"S","lat":"37.484147","lng":"127.034631"},"양재시민의숲":{"address":"서울특별시 서초구 매헌로 지하 116","line":"S","lat":"37.470023","lng":"127.038420"},"양정":{"address":"경기도 남양주시 경강로 237","line":"K","lat":"37.605330","lng":"127.193640"},"양주":{"address":"경기도 양주시 평화로 919","line":"1","lat":"37.774381","lng":"127.044708"},"양천구청":{"address":"서울특별시 양천구 목동로3길 지하 33","line":"2","lat":"37.512398","lng":"126.865819"},"양천향교":{"address":"서울특별시 강서구 양천로 지하 341","line":"9","lat":"37.568381","lng":"126.841333"},"양평":{"address":"서울특별시 영등포구 양산로 지하 21","line":"5","lat":"37.525648","lng":"126.885778"},"양평(경의중앙선)":{"address":"경기도 양평군 양평읍 역전길 30","line":"K","lat":"37.492832","lng":"127.491814"},"어룡":{"address":"경기도 의정부시 충의로 125","line":"U","lat":"37.742802","lng":"127.085035"},"어린이대공원":{"address":"서울특별시 광진구 능동로 지하 210","line":"7","lat":"37.548014","lng":"127.074658"},"어정":{"address":"경기도 용인시 기흥구 어정로 128","line":"E","lat":"37.274917","lng":"127.143714"},"언주":{"address":"서울특별시 강남구 봉은사로 지하 201","line":"9","lat":"37.507287","lng":"127.033868"},"여의나루":{"address":"서울특별시 영등포구 여의동로 지하 343","line":"5","lat":"37.527098","lng":"126.932901"},"여의도":{"address":"서울특별시 영등포구 여의나루로 지하 40","line":"5","lat":"37.521624","lng":"126.924191"},"역곡":{"address":"경기도 부천시 원미구 역곡로 1","line":"1","lat":"37.485178","lng":"126.811502"},"역삼":{"address":"서울특별시 강남구 테헤란로 지하 156","line":"2","lat":"37.500622","lng":"127.036456"},"역촌":{"address":"서울특별시 은평구 서오릉로 지하 63","line":"6","lat":"37.606021","lng":"126.922744"},"연수":{"address":"인천광역시 연수구 벚꽃로 115","line":"SU","lat":"37.417804","lng":"126.678940"},"연신내":{"address":"서울특별시 은평구 통일로 지하 849","line":"6","lat":"37.619001","lng":"126.921008"},"염창":{"address":"서울특별시 강서구 공항대로 지하 631","line":"9","lat":"37.546936","lng":"126.874916"},"영등포":{"address":"서울특별시 영등포구 경인로 846","line":"1","lat":"37.515504","lng":"126.907628"},"영등포구청":{"address":"서울특별시 영등포구 양산로 지하 116","line":"5","lat":"37.524970","lng":"126.895951"},"영등포시장":{"address":"서울특별시 영등포구 양산로 지하 200","line":"5","lat":"37.522669","lng":"126.905139"},"영통":{"address":"경기도 수원시 영통구 봉영로 지하 1560","line":"B","lat":"37.251568","lng":"127.071394"},"예술회관":{"address":"인천광역시 남동구 예술로 지하 172","line":"I","lat":"37.449396","lng":"126.701012"},"오금":{"address":"서울특별시 송파구 오금로 지하 321","line":"5","lat":"37.502162","lng":"127.128111"},"오류동":{"address":"서울특별시 구로구 경인로20길 13","line":"1","lat":"37.494526","lng":"126.845365"},"오리":{"address":"경기도 성남시 분당구 성남대로 지하 55","line":"B","lat":"37.339824","lng":"127.108942"},"오목교":{"address":"서울특별시 양천구 오목로 지하 342","line":"5","lat":"37.524496","lng":"126.875181"},"오빈":{"address":"경기도 양평군 양평읍 덕바위길 58","line":"K","lat":"37.506062","lng":"127.473868"},"오산":{"address":"경기도 오산시 역광장로 59","line":"1","lat":"37.145885","lng":"127.066720"},"오산대":{"address":"경기도 오산시 청학로 236","line":"1","lat":"37.168953","lng":"127.063197"},"오이도":{"address":"경기도 시흥시 역전로 430","line":"SU","lat":"37.362357","lng":"126.738714"},"옥수":{"address":"서울특별시 성동구 동호로 21","line":"K","lat":"37.540685","lng":"127.017965"},"온수":{"address":"서울특별시 구로구 경인로3길 지하 64","line":"7","lat":"37.492258","lng":"126.823388"},"온양온천":{"address":"충청남도 아산시 온천대로 1496","line":"1","lat":"36.780483","lng":"127.003249"},"올림픽공원":{"address":"서울특별시 송파구 양재대로 지하 1233","line":"5","lat":"37.516078","lng":"127.130848"},"완정":{"address":"인천시 서구 당하동 1077-10","line":"I2","lat":"37.592928","lng":"126.673203"},"왕길":{"address":"인천광역시 서구 왕길동 474-8번지","line":"I2","lat":"37.595180","lng":"126.642696"},"왕십리":{"address":"서울특별시 성동구 왕십리로 지하 300","line":"2","lat":"37.561533","lng":"127.037732"},"외대앞":{"address":"서울특별시 동대문구 휘경로 27","line":"1","lat":"37.596073","lng":"127.063549"},"용답":{"address":"서울특별시 성동구 용답길 86","line":"2","lat":"37.561904","lng":"127.050899"},"용두":{"address":"서울특별시 동대문구 천호대로 지하 129","line":"2","lat":"37.574028","lng":"127.038091"},"용마산":{"address":"서울특별시 중랑구 용마산로 지하 227","line":"7","lat":"37.573647","lng":"127.086727"},"용문":{"address":"경기도 양평군 용문면 용문역길 21","line":"K","lat":"37.482230","lng":"127.594647"},"용산":{"address":"서울특별시 용산구 한강대로23길 55","line":"K","lat":"37.529849","lng":"126.964561"},"우장산":{"address":"서울특별시 강서구 강서로 지하 262","line":"5","lat":"37.548768","lng":"126.836318"},"운길산":{"address":"경기도 남양주시 조안면 운길산로 20","line":"K","lat":"37.554669","lng":"127.310115"},"운동장·송담대":{"address":"경기도 용인시 처인구 금학로 409","line":"E","lat":"37.237845","lng":"127.209198"},"운서":{"address":"인천광역시 중구 흰바위로59번길 26","line":"A","lat":"37.492904","lng":"126.493790"},"운연":{"address":"인천광역시 남동구 운연동 131-7","line":"I2","lat":"37.440127","lng":"126.759970"},"운정":{"address":"경기도 파주시 운정역길 368","line":"K","lat":"37.725826","lng":"126.767257"},"원당":{"address":"경기도 고양시 덕양구 고양대로 1429","line":"3","lat":"37.653324","lng":"126.843041"},"원덕":{"address":"경기도 양평군 양평읍 원덕흑천길 94-22","line":"K","lat":"37.468672","lng":"127.547076"},"원인재":{"address":"인천광역시 연수구 경원대로 지하 285","line":"I","lat":"37.412603","lng":"126.687389"},"원흥":{"address":"경기도 고양시 덕양구 권율대로 681","line":"3","lat":"37.650658","lng":"126.872642"},"월계":{"address":"서울특별시 노원구 월계로53길 40","line":"1","lat":"37.633212","lng":"127.058831"},"월곡":{"address":"서울특별시 성북구 월곡로 지하 107","line":"6","lat":"37.601948","lng":"127.041518"},"월곶":{"address":"경기도 시흥시 월곶중앙로14번길 56","line":"SU","lat":"37.391769","lng":"126.742699"},"월드컵경기장":{"address":"서울특별시 마포구 월드컵로 지하 240","line":"6","lat":"37.569532","lng":"126.899298"},"월롱":{"address":"경기도 파주시 월롱면 통일로 980","line":"K","lat":"37.796188","lng":"126.792587"},"을지로3가":{"address":"서울특별시 중구 을지로 지하 129","line":"3","lat":"37.566295","lng":"126.991910"},"을지로4가":{"address":"서울특별시 중구 창경궁로 지하 51","line":"5","lat":"37.566941","lng":"126.998079"},"을지로입구":{"address":"서울특별시 중구 을지로 지하 42","line":"2","lat":"37.566014","lng":"126.982618"},"응봉":{"address":"서울특별시 성동구 고산자로 123","line":"K","lat":"37.549946","lng":"127.034538"},"응암":{"address":"서울특별시 은평구 증산로 지하 477","line":"6","lat":"37.598605","lng":"126.915577"},"의왕":{"address":"경기도 의왕시 철도박물관로 66","line":"1","lat":"37.320852","lng":"126.948217"},"의정부":{"address":"경기도 의정부시 평화로 525","line":"1","lat":"37.738415","lng":"127.045958"},"의정부시청":{"address":"경기도 의정부시 의정로 69","line":"U","lat":"37.739256","lng":"127.034781"},"의정부중앙":{"address":"경기도 의정부시 호국로 1305","line":"U","lat":"37.743676","lng":"127.049565"},"이대":{"address":"서울특별시 마포구 신촌로 지하 180","line":"2","lat":"37.556733","lng":"126.946013"},"이매":{"address":"경기도 성남시 분당구 성남대로 지하 738","line":"B","lat":"37.396104","lng":"127.128270"},"이촌":{"address":"서울특별시 용산구 이촌로71길 42","line":"K","lat":"37.522272","lng":"126.974345"},"이태원":{"address":"서울특별시 용산구 이태원로 지하 177","line":"6","lat":"37.534488","lng":"126.994302"},"인덕원":{"address":"경기도 안양시 동안구 흥안대로 지하 529","line":"4","lat":"37.401553","lng":"126.976715"},"인천":{"address":"인천광역시 중구 제물량로 269","line":"1","lat":"37.476691","lng":"126.616936"},"인천가좌":{"address":"인천광역시 서구 가좌동 110","line":"I2","lat":"37.489700","lng":"126.675208"},"인천국제공항":{"address":"인천광역시 중구 공항로 271","line":"A","lat":"37.447464","lng":"126.452508"},"인천논현":{"address":"인천광역시 남동구 청능대로 567","line":"SU","lat":"37.400614","lng":"126.722478"},"인천대공원":{"address":"인천광역시 남동구 장수동 606-9","line":"I2","lat":"37.448769","lng":"126.752618"},"인천대입구":{"address":"인천광역시 연수구 인천타워대로 지하 155","line":"I","lat":"37.386007","lng":"126.639484"},"인천시청":{"address":"인천광역시 남동구 예술로 지하 264","line":"I2","lat":"37.457405","lng":"126.702221"},"인천터미널":{"address":"인천광역시 남구 예술로 지하 85","line":"I","lat":"37.442383","lng":"126.699706"},"일산":{"address":"경기도 고양시 일산서구 경의로 672","line":"K","lat":"37.682077","lng":"126.769846"},"일원":{"address":"서울특별시 강남구 일원로 지하 121","line":"3","lat":"37.483681","lng":"127.084390"},"임학":{"address":"인천광역시 계양구 장제로 지하 875","line":"I","lat":"37.545059","lng":"126.738665"},"작전":{"address":"인천광역시 계양구 계양대로 지하 73","line":"I","lat":"37.530415","lng":"126.722527"},"잠실":{"address":"서울특별시 송파구 올림픽로 305","line":"8","lat":"37.513950","lng":"127.102234"},"잠실나루":{"address":"서울특별시 송파구 오금로 20","line":"2","lat":"37.520733","lng":"127.103790"},"잠실새내":{"address":"서울특별시 송파구 올림픽로 지하 140","line":"2","lat":"37.511687","lng":"127.086162"},"잠원":{"address":"서울특별시 서초구 잠원로4길 지하 46","line":"3","lat":"37.512759","lng":"127.011220"},"장승배기":{"address":"서울특별시 동작구 상도로 지하 188","line":"7","lat":"37.504898","lng":"126.939150"},"장암":{"address":"경기도 의정부시 동일로 121","line":"7","lat":"37.700109","lng":"127.053196"},"장지":{"address":"서울특별시 송파구 송파대로 지하 82","line":"8","lat":"37.478703","lng":"127.126191"},"장한평":{"address":"서울특별시 동대문구 천호대로 지하 405","line":"5","lat":"37.561440","lng":"127.064623"},"전대·에버랜드":{"address":"경기도 용인시 처인구 포곡읍 에버랜드로 143","line":"E","lat":"37.285342","lng":"127.219561"},"정발산":{"address":"경기도 고양시 일산동구 중앙로 지하 1270","line":"3","lat":"37.659477","lng":"126.773359"},"정부과천청사":{"address":"경기도 과천시 중앙로 지하 100","line":"4","lat":"37.426513","lng":"126.989780"},"정왕":{"address":"경기도 시흥시 마유로418번길 15","line":"4","lat":"37.351735","lng":"126.742989"},"정자":{"address":"경기도 성남시 분당구 성남대로 지하 333","line":"S","lat":"37.367060","lng":"127.108105"},"제기동":{"address":"서울특별시 동대문구 왕산로 지하 93","line":"1","lat":"37.578103","lng":"127.034893"},"제물포":{"address":"인천광역시 남구 경인로 129","line":"1","lat":"37.466769","lng":"126.656666"},"종각":{"address":"서울특별시 종로구 종로 지하 55","line":"1","lat":"37.570161","lng":"126.982923"},"종로3가":{"address":"서울특별시 종로구 돈화문로11길 지하 26","line":"5","lat":"37.571607","lng":"126.991806"},"종로5가":{"address":"서울특별시 종로구 종로 지하 216","line":"1","lat":"37.570926","lng":"127.001849"},"종합운동장":{"address":"서울특별시 송파구 올림픽로 지하 23","line":"2","lat":"37.510997","lng":"127.073642"},"주안":{"address":"인천광역시 남구 주안동 125","line":"I2","lat":"37.464941","lng":"126.679923"},"주안국가산단":{"address":"인천광역시 서구 가좌동 606-11","line":"I2","lat":"37.473703","lng":"126.681130"},"주엽":{"address":"경기도 고양시 일산서구 중앙로 지하 1432","line":"3","lat":"37.670072","lng":"126.761334"},"죽전":{"address":"경기도 용인시 수지구 포은대로 530","line":"B","lat":"37.324753","lng":"127.107395"},"중계":{"address":"서울특별시 노원구 동일로 지하 1308-1","line":"7","lat":"37.644583","lng":"127.064303"},"중곡":{"address":"서울특별시 광진구 능동로 지하 417","line":"7","lat":"37.565923","lng":"127.084320"},"중동":{"address":"경기도 부천시 소사구 중동로 73","line":"1","lat":"37.486562","lng":"126.764843"},"중랑":{"address":"서울특별시 중랑구 중랑역로 9","line":"G","lat":"37.594917","lng":"127.076116"},"중앙":{"address":"경기도 안산시 단원구 중앙대로 918","line":"4","lat":"37.315941","lng":"126.838573"},"중화":{"address":"서울특별시 중랑구 동일로 지하 797","line":"7","lat":"37.602545","lng":"127.079264"},"증미":{"address":"서울특별시 강서구 양천로 지하 560","line":"9","lat":"37.557402","lng":"126.861939"},"증산":{"address":"서울특별시 은평구 증산로 지하 306","line":"6","lat":"37.583876","lng":"126.909645"},"지석":{"address":"경기도 용인시 기흥구 어정로 28","line":"E","lat":"37.269606","lng":"127.136515"},"지식정보단지":{"address":"인천광역시 연수구 인천타워대로 지하 57","line":"I","lat":"37.378384","lng":"126.645168"},"지제":{"address":"경기도 평택시 경기대로 777","line":"1","lat":"37.018800","lng":"127.070444"},"지축":{"address":"경기도 고양시 덕양구 삼송로 300","line":"3","lat":"37.648048","lng":"126.913951"},"지평":{"address":"경기도 양평군 지평면 지평역길 32","line":"K","lat":null,"lng":null},"지행":{"address":"경기도 동두천시 평화로 2285","line":"1","lat":"37.892334","lng":"127.055716"},"직산":{"address":"충청남도 천안시 서북구 직산읍 천안대로 1471-33","line":"1","lat":"36.870593","lng":"127.143904"},"진위":{"address":"경기도 평택시 진위면 경기대로 1855","line":"1","lat":"37.109447","lng":"127.062278"},"창동":{"address":"서울특별시 도봉구 마들로11길 77","line":"4","lat":"37.653166","lng":"127.047731"},"창신":{"address":"서울특별시 종로구 지봉로 지하 112","line":"6","lat":"37.579661","lng":"127.015241"},"천마산":{"address":"경기도 남양주시 화도읍 묵현로25번길 37","line":"G","lat":"37.658978","lng":"127.285379"},"천안":{"address":"충청남도 천안시 동남구 대흥로 239","line":"1","lat":"36.810005","lng":"127.146826"},"천왕":{"address":"서울특별시 구로구 오리로 지하 1154","line":"7","lat":"37.486637","lng":"126.838713"},"천호":{"address":"서울특별시 강동구 천호대로 지하 997","line":"8","lat":"37.538397","lng":"127.123572"},"철산":{"address":"경기도 광명시 철산로 지하 13","line":"7","lat":"37.476050","lng":"126.867911"},"청계산입구":{"address":"서울특별시 서초구 청계산로 지하 179","line":"S","lat":"37.447211","lng":"127.055664"},"청구":{"address":"서울특별시 중구 청구로 지하 77","line":"6","lat":"37.560245","lng":"127.013828"},"청담":{"address":"서울특별시 강남구 학동로 지하 508","line":"7","lat":"37.519365","lng":"127.053350"},"청라국제도시":{"address":"인천광역시 서구 에코로 163","line":"A","lat":"37.555878","lng":"126.625327"},"청량리":{"address":"서울특별시 동대문구 왕산로 214","line":"K","lat":"37.580178","lng":"127.046835"},"청명":{"address":"경기도 수원시 영통구 봉영로 지하 1670","line":"B","lat":"37.259489","lng":"127.078934"},"청평":{"address":"경기도 가평군 청평면 청평역로 97-33","line":"G","lat":"37.735488","lng":"127.426610"},"초당":{"address":"경기도 용인시 기흥구 동백죽전대로 204","line":"E","lat":"37.260752","lng":"127.159443"},"초지":{"address":"경기도 안산시 단원구 중앙대로 620","line":"4","lat":"37.320646","lng":"126.805913"},"총신대입구(이수)":{"address":"서울특별시 동작구 사당로 지하 310","line":"7","lat":"37.486263","lng":"126.981989"},"춘의":{"address":"경기도 부천시 원미구 길주로 지하 406","line":"7","lat":"37.503663","lng":"126.787036"},"춘천":{"address":"강원도 춘천시 평화로 1","line":"G","lat":"37.885054","lng":"127.717023"},"충무로":{"address":"서울특별시 중구 퇴계로 지하 199","line":"3","lat":"37.561243","lng":"126.994280"},"충정로":{"address":"서울특별시 서대문구 충정로 지하 28-1","line":"5","lat":"37.559973","lng":"126.963672"},"캠퍼스타운":{"address":"인천광역시 연수구 송도국제대로 지하 66","line":"I","lat":"37.387855","lng":"126.661673"},"탄현":{"address":"경기도 고양시 일산서구 경의로 856","line":"K","lat":"37.694023","lng":"126.761086"},"탑석":{"address":"경기도 의정부시 충의로 20","line":"U","lat":"37.733579","lng":"127.088704"},"태릉입구":{"address":"서울특별시 노원구 동일로 지하 992-1","line":"7","lat":"37.617983","lng":"127.075120"},"태평":{"address":"경기도 성남시 수정구 성남대로 지하 1229","line":"B","lat":"37.440019","lng":"127.127709"},"테크노파크":{"address":"인천광역시 연수구 송도국제대로 지하 150","line":"I","lat":"37.382268","lng":"126.656365"},"퇴계원":{"address":"경기도 남양주시 퇴계원면 경춘북로 545","line":"G","lat":"37.648311","lng":"127.143952"},"파주":{"address":"경기도 파주시 파주읍 주라위길 38","line":"K","lat":"37.815298","lng":"126.792783"},"판교":{"address":"경기도 성남시 분당구 판교역로 지하 160","line":"S","lat":"37.394761","lng":"127.111217"},"팔당":{"address":"경기도 남양주시 와부읍 팔당로 107","line":"K","lat":"37.547371","lng":"127.243939"},"평내호평":{"address":"경기도 남양주시 경춘로 1375","line":"G","lat":"37.653225","lng":"127.244493"},"평촌":{"address":"경기도 안양시 동안구 부림로 지하 123","line":"4","lat":"37.394287","lng":"126.963883"},"평택":{"address":"경기도 평택시 평택로 51","line":"1","lat":"36.990726","lng":"127.085159"},"풍산":{"address":"경기도 고양시 일산동구 경의로 486","line":"K","lat":"37.672346","lng":"126.786243"},"하계":{"address":"서울특별시 노원구 동일로 지하 1196","line":"7","lat":"37.636352","lng":"127.067990"},"학동":{"address":"서울특별시 강남구 학동로 지하 180","line":"7","lat":"37.514229","lng":"127.031656"},"학여울":{"address":"서울특별시 강남구 남부순환로 지하 3104","line":"3","lat":"37.496663","lng":"127.070594"},"한강진":{"address":"서울특별시 용산구 이태원로 지하 287","line":"6","lat":"37.539631","lng":"127.001725"},"한남":{"address":"서울특별시 용산구 독서당로6길 12-13","line":"K","lat":"37.529430","lng":"127.009169"},"한대앞":{"address":"경기도 안산시 상록구 충장로 337","line":"4","lat":"37.309689","lng":"126.853440"},"한성대입구":{"address":"서울특별시 성북구 삼선교로 지하 1","line":"4","lat":"37.588458","lng":"127.006221"},"한양대":{"address":"서울특별시 성동구 왕십리로 206","line":"2","lat":"37.555273","lng":"127.043655"},"한티":{"address":"서울특별시 강남구 선릉로 지하 228","line":"B","lat":"37.496237","lng":"127.052873"},"합정":{"address":"서울특별시 마포구 양화로 지하 55","line":"2","lat":"37.549463","lng":"126.913739"},"행당":{"address":"서울특별시 성동구 행당로 지하 89","line":"5","lat":"37.557322","lng":"127.029476"},"행신":{"address":"경기도 고양시 덕양구 소원로 102","line":"K","lat":"37.612102","lng":"126.834146"},"혜화":{"address":"서울특별시 종로구 대학로 지하 120","line":"4","lat":"37.582336","lng":"127.001844"},"호구포":{"address":"인천광역시 남동구 호구포로 205","line":"SU","lat":"37.401637","lng":"126.708627"},"홍대입구":{"address":"서울특별시 마포구 양화로 지하 188","line":"K","lat":"37.557192","lng":"126.925381"},"홍제":{"address":"서울특별시 서대문구 통일로 지하 440-1","line":"3","lat":"37.589066","lng":"126.943736"},"화곡":{"address":"서울특별시 강서구 화곡로 지하 168","line":"5","lat":"37.541513","lng":"126.840461"},"화랑대":{"address":"서울특별시 노원구 화랑로 지하 510","line":"6","lat":"37.620064","lng":"127.084689"},"화서":{"address":"경기도 수원시 팔달구 덕영대로 692","line":"1","lat":"37.283862","lng":"126.989627"},"화전":{"address":"경기도 고양시 덕양구 화랑로 53","line":"K","lat":"37.602888","lng":"126.868387"},"화정":{"address":"경기도 고양시 덕양구 화정로 지하 60","line":"3","lat":"37.634592","lng":"126.832650"},"회기":{"address":"서울특별시 동대문구 회기로 196","line":"G","lat":"37.589460","lng":"127.057583"},"회룡":{"address":"경기도 의정부시 평화로 363","line":"U","lat":"37.724846","lng":"127.046895"},"회현":{"address":"서울특별시 중구 퇴계로 지하 54","line":"4","lat":"37.558514","lng":"126.978246"},"효자":{"address":"경기도 의정부시 부용로 159-40","line":"U","lat":"37.754025","lng":"127.076902"},"효창공원앞":{"address":"서울특별시 용산구 백범로 지하 287","line":"6","lat":"37.539261","lng":"126.961351"},"흑석":{"address":"서울특별시 동작구 현충로 지하 90","line":"9","lat":"37.508770","lng":"126.963708"},"흥선":{"address":"경기도 의정부시 호국로 1197","line":"U","lat":"37.743302","lng":"127.037023"}}